{"type":"FeatureCollection","features":[{"type":"Feature","geometry":{"type":"Point","coordinates":[-72.28776629946479,43.189174599578294]},"properties":{"OBJECTID":"1","MASTERID":"55719","FACILITY_ID":"2340","SITE_NAME":"ACWORTH GARAGE","ADDRESS":"MULLIGAN ROAD","ADD2":"","TOWN":"ACWORTH","STATUS":"ACTIVE","ONESTOP_LINK":"http://www4.des.state.nh.us/DESOneStop/ASFDetail.aspx?ID=2340","LONGITUDE":"-72.29","LATITUDE":"43.19"},"id":1},{"type":"Feature","geometry":{"type":"Point","coordinates":[-71.81798260013032,43.436144099696634]},"properties":{"OBJECTID":"2","MASTERID":"55725","FACILITY_ID":"2347","SITE_NAME":"ANDOVER AUTO WRECKING","ADDRESS":"153 MAIN STREET","ADD2":"","TOWN":"ANDOVER","STATUS":"ACTIVE","ONESTOP_LINK":"http://www4.des.state.nh.us/DESOneStop/ASFDetail.aspx?ID=2347","LONGITUDE":"-71.82","LATITUDE":"43.44"},"id":2},{"type":"Feature","geometry":{"type":"Point","coordinates":[-71.93594409964098,43.04575239972406]},"properties":{"OBJECTID":"3","MASTERID":"55775","FACILITY_ID":"2349","SITE_NAME":"KEN'S SALVAGE","ADDRESS":"51 GOODELL RD","ADD2":"","TOWN":"ANTRIM","STATUS":"ACTIVE","ONESTOP_LINK":"http://www4.des.state.nh.us/DESOneStop/ASFDetail.aspx?ID=2349","LONGITUDE":"-71.94","LATITUDE":"43.05"},"id":3},{"type":"Feature","geometry":{"type":"Point","coordinates":[-71.37960479991523,43.0185881999969]},"properties":{"OBJECTID":"4","MASTERID":"55783","FACILITY_ID":"2352","SITE_NAME":"ISA AUTO SALES, INC.","ADDRESS":"MAROUN NOMINEE TRUST","ADD2":"140 ROCKINGHAM RD","TOWN":"AUBURN","STATUS":"ACTIVE","ONESTOP_LINK":"http://www4.des.state.nh.us/DESOneStop/ASFDetail.aspx?ID=2352","LONGITUDE":"-71.38","LATITUDE":"43.02"},"id":4},{"type":"Feature","geometry":{"type":"Point","coordinates":[-71.30381379969681,43.360966599845284]},"properties":{"OBJECTID":"5","MASTERID":"55784","FACILITY_ID":"2353","SITE_NAME":"BARNSTEAD USED AUTO PARTS","ADDRESS":"665 BEAUTY HILL RD WEST","ADD2":"","TOWN":"BARNSTEAD","STATUS":"ACTIVE","ONESTOP_LINK":"http://www4.des.state.nh.us/DESOneStop/ASFDetail.aspx?ID=2353","LONGITUDE":"-71.30","LATITUDE":"43.36"},"id":5},{"type":"Feature","geometry":{"type":"Point","coordinates":[-70.99079129950448,43.23986910036877]},"properties":{"OBJECTID":"6","MASTERID":"39906","FACILITY_ID":"2355","SITE_NAME":"LANDRY'S AUTO SALVAGE","ADDRESS":"3 GREENHILL RD","ADD2":"PO BOX 550","TOWN":"BARRINGTON","STATUS":"ACTIVE","ONESTOP_LINK":"http://www4.des.state.nh.us/DESOneStop/ASFDetail.aspx?ID=2355","LONGITUDE":"-70.99","LATITUDE":"43.24"},"id":6},{"type":"Feature","geometry":{"type":"Point","coordinates":[-70.9990080004215,43.19267179995138]},"properties":{"OBJECTID":"7","MASTERID":"55788","FACILITY_ID":"2357","SITE_NAME":"SWAINS GARAGE","ADDRESS":"10 BEAUTY HILL RD","ADD2":"","TOWN":"BARRINGTON","STATUS":"INACTIVE","ONESTOP_LINK":"http://www4.des.state.nh.us/DESOneStop/ASFDetail.aspx?ID=2357","LONGITUDE":"-71.00","LATITUDE":"43.19"},"id":7},{"type":"Feature","geometry":{"type":"Point","coordinates":[-71.4739993005385,43.48822460033999]},"properties":{"OBJECTID":"8","MASTERID":"15736","FACILITY_ID":"2360","SITE_NAME":"AL'S USED PARTS","ADDRESS":"49 HUBBLE ROAD","ADD2":"","TOWN":"BELMONT","STATUS":"ACTIVE","ONESTOP_LINK":"http://www4.des.state.nh.us/DESOneStop/ASFDetail.aspx?ID=2360","LONGITUDE":"-71.47","LATITUDE":"43.49"},"id":8},{"type":"Feature","geometry":{"type":"Point","coordinates":[-71.4904634997341,43.447107999851504]},"properties":{"OBJECTID":"9","MASTERID":"55794","FACILITY_ID":"2362","SITE_NAME":"WALKER AUTO BODY, SALES & SERVICE","ADDRESS":"DEPOT ST","ADD2":"STATE RTE 140","TOWN":"BELMONT","STATUS":"ACTIVE","ONESTOP_LINK":"http://www4.des.state.nh.us/DESOneStop/ASFDetail.aspx?ID=2362","LONGITUDE":"-71.49","LATITUDE":"43.45"},"id":9},{"type":"Feature","geometry":{"type":"Point","coordinates":[-71.49349960020655,43.46029720007855]},"properties":{"OBJECTID":"10","MASTERID":"40091","FACILITY_ID":"2363","SITE_NAME":"DUGGAN AUTO SALVAGE","ADDRESS":"300 HURRICANE RD","ADD2":"","TOWN":"BELMONT","STATUS":"ACTIVE","ONESTOP_LINK":"http://www4.des.state.nh.us/DESOneStop/ASFDetail.aspx?ID=2363","LONGITUDE":"-71.49","LATITUDE":"43.46"},"id":10},{"type":"Feature","geometry":{"type":"Point","coordinates":[-71.49385240001736,43.460772200396015]},"properties":{"OBJECTID":"11","MASTERID":"15737","FACILITY_ID":"2364","SITE_NAME":"BELMONT AUTO & BELMONT SALVAGE","ADDRESS":"288 HURRICANE ROAD","ADD2":"","TOWN":"BELMONT","STATUS":"ACTIVE","ONESTOP_LINK":"http://www4.des.state.nh.us/DESOneStop/ASFDetail.aspx?ID=2364","LONGITUDE":"-71.49","LATITUDE":"43.46"},"id":11},{"type":"Feature","geometry":{"type":"Point","coordinates":[-71.1960329996915,44.48119100023953]},"properties":{"OBJECTID":"12","MASTERID":"55795","FACILITY_ID":"2368","SITE_NAME":"P & L AUTO PARTS, INC.","ADDRESS":"30 JERICHO ROAD","ADD2":"RTE 110","TOWN":"BERLIN","STATUS":"ACTIVE","ONESTOP_LINK":"http://www4.des.state.nh.us/DESOneStop/ASFDetail.aspx?ID=2368","LONGITUDE":"-71.20","LATITUDE":"44.48"},"id":12},{"type":"Feature","geometry":{"type":"Point","coordinates":[-71.68182710061983,44.280977099934184]},"properties":{"OBJECTID":"13","MASTERID":"56870","FACILITY_ID":"2373","SITE_NAME":"TUCKER PROPERTY","ADDRESS":"2269 MAIN ST","ADD2":"","TOWN":"BETHLEHEM","STATUS":"ACTIVE","ONESTOP_LINK":"http://www4.des.state.nh.us/DESOneStop/ASFDetail.aspx?ID=2373","LONGITUDE":"-71.68","LATITUDE":"44.28"},"id":13},{"type":"Feature","geometry":{"type":"Point","coordinates":[-71.6398495999675,43.32577430031848]},"properties":{"OBJECTID":"14","MASTERID":"403","FACILITY_ID":"2376","SITE_NAME":"KENNEY'S GARAGE & AUTO BODY","ADDRESS":"107 HIGH ST","ADD2":"","TOWN":"BOSCAWEN","STATUS":"ACTIVE","ONESTOP_LINK":"http://www4.des.state.nh.us/DESOneStop/ASFDetail.aspx?ID=2376","LONGITUDE":"-71.64","LATITUDE":"43.33"},"id":14},{"type":"Feature","geometry":{"type":"Point","coordinates":[-71.48574960000596,43.13456630043574]},"properties":{"OBJECTID":"15","MASTERID":"40291","FACILITY_ID":"2379","SITE_NAME":"BOW AUTO SALVAGE, INC.","ADDRESS":"663 ROUTE 3A","ADD2":"","TOWN":"BOW","STATUS":"ACTIVE","ONESTOP_LINK":"http://www4.des.state.nh.us/DESOneStop/ASFDetail.aspx?ID=2379","LONGITUDE":"-71.49","LATITUDE":"43.13"},"id":15},{"type":"Feature","geometry":{"type":"Point","coordinates":[-72.0423218004544,43.2560721998707]},"properties":{"OBJECTID":"16","MASTERID":"56873","FACILITY_ID":"2381","SITE_NAME":"LARRY'S SALVAGE","ADDRESS":"78 FORTUNE ROAD","ADD2":"","TOWN":"BRADFORD","STATUS":"ACTIVE","ONESTOP_LINK":"http://www4.des.state.nh.us/DESOneStop/ASFDetail.aspx?ID=2381","LONGITUDE":"-72.04","LATITUDE":"43.26"},"id":16},{"type":"Feature","geometry":{"type":"Point","coordinates":[-71.01033880050211,42.99310799986045]},"properties":{"OBJECTID":"17","MASTERID":"40329","FACILITY_ID":"2382","SITE_NAME":"BOB'S HEAVY EQUIPMENT","ADDRESS":"39 MIDDLE ROAD","ADD2":"ROUTE 111A","TOWN":"BRENTWOOD","STATUS":"ACTIVE","ONESTOP_LINK":"http://www4.des.state.nh.us/DESOneStop/ASFDetail.aspx?ID=2382","LONGITUDE":"-71.01","LATITUDE":"42.99"},"id":17},{"type":"Feature","geometry":{"type":"Point","coordinates":[-71.07476870015854,43.009858300277884]},"properties":{"OBJECTID":"18","MASTERID":"40878","FACILITY_ID":"2383","SITE_NAME":"R A SAMPSON, LLC","ADDRESS":"405 RTE 125","ADD2":"","TOWN":"BRENTWOOD","STATUS":"ACTIVE","ONESTOP_LINK":"http://www4.des.state.nh.us/DESOneStop/ASFDetail.aspx?ID=2383","LONGITUDE":"-71.07","LATITUDE":"43.01"},"id":18},{"type":"Feature","geometry":{"type":"Point","coordinates":[-72.10561110041644,43.6466024001531]},"properties":{"OBJECTID":"19","MASTERID":"40453","FACILITY_ID":"2388","SITE_NAME":"PETER'S AUTO REPAIR","ADDRESS":"83 US RTE 4","ADD2":"","TOWN":"CANAAN","STATUS":"ACTIVE","ONESTOP_LINK":"http://www4.des.state.nh.us/DESOneStop/ASFDetail.aspx?ID=2388","LONGITUDE":"-72.11","LATITUDE":"43.65"},"id":19},{"type":"Feature","geometry":{"type":"Point","coordinates":[-71.27842150019941,43.06034439975223]},"properties":{"OBJECTID":"20","MASTERID":"15923","FACILITY_ID":"2391","SITE_NAME":"CAR WORLD, INCORPORATED","ADDRESS":"134 RAYMOND RD","ADD2":"RTE 27","TOWN":"CANDIA","STATUS":"ACTIVE","ONESTOP_LINK":"http://www4.des.state.nh.us/DESOneStop/ASFDetail.aspx?ID=2391","LONGITUDE":"-71.28","LATITUDE":"43.06"},"id":20},{"type":"Feature","geometry":{"type":"Point","coordinates":[-71.49858850016318,43.396916300239646]},"properties":{"OBJECTID":"21","MASTERID":"15933","FACILITY_ID":"2393","SITE_NAME":"CANTERBURY SALVAGE","ADDRESS":"28 MISERY RD","ADD2":"","TOWN":"CANTERBURY","STATUS":"ACTIVE","ONESTOP_LINK":"http://www4.des.state.nh.us/DESOneStop/ASFDetail.aspx?ID=2393","LONGITUDE":"-71.50","LATITUDE":"43.40"},"id":21},{"type":"Feature","geometry":{"type":"Point","coordinates":[-72.42451319940722,43.25790269978728]},"properties":{"OBJECTID":"22","MASTERID":"55746","FACILITY_ID":"2396","SITE_NAME":"BLAIR AUTO SALVAGE","ADDRESS":"73 BLAIR HILL ROAD","ADD2":"","TOWN":"CHARLESTOWN","STATUS":"ACTIVE","ONESTOP_LINK":"http://www4.des.state.nh.us/DESOneStop/ASFDetail.aspx?ID=2396","LONGITUDE":"-72.42","LATITUDE":"43.26"},"id":22},{"type":"Feature","geometry":{"type":"Point","coordinates":[-72.38513850027407,43.31548609961953]},"properties":{"OBJECTID":"23","MASTERID":"55817","FACILITY_ID":"2397","SITE_NAME":"MORWAY AUTO SALVAGE","ADDRESS":"50 JUDLAND HEIGHTS","ADD2":"","TOWN":"CHARLESTOWN","STATUS":"ACTIVE","ONESTOP_LINK":"http://www4.des.state.nh.us/DESOneStop/ASFDetail.aspx?ID=2397","LONGITUDE":"-72.39","LATITUDE":"43.32"},"id":23},{"type":"Feature","geometry":{"type":"Point","coordinates":[-72.38722459947904,43.303947200393694]},"properties":{"OBJECTID":"24","MASTERID":"56876","FACILITY_ID":"2398","SITE_NAME":"BLAINE PROPERTY","ADDRESS":"25 BUTTONWOOD LANE","ADD2":"","TOWN":"CHARLESTOWN","STATUS":"ACTIVE","ONESTOP_LINK":"http://www4.des.state.nh.us/DESOneStop/ASFDetail.aspx?ID=2398","LONGITUDE":"-72.39","LATITUDE":"43.30"},"id":24},{"type":"Feature","geometry":{"type":"Point","coordinates":[-72.42605760009647,43.17904649967825]},"properties":{"OBJECTID":"25","MASTERID":"56878","FACILITY_ID":"2399","SITE_NAME":"WILSON AUTO SALVAGE","ADDRESS":"75 PECOR ROAD","ADD2":"","TOWN":"CHARLESTOWN","STATUS":"ACTIVE","ONESTOP_LINK":"http://www4.des.state.nh.us/DESOneStop/ASFDetail.aspx?ID=2399","LONGITUDE":"-72.43","LATITUDE":"43.18"},"id":25},{"type":"Feature","geometry":{"type":"Point","coordinates":[-72.36691600028682,43.22810759990079]},"properties":{"OBJECTID":"26","MASTERID":"56880","FACILITY_ID":"2400","SITE_NAME":"MERRILL PROPERTY","ADDRESS":"489 SOUTH HEMLOCK ROAD","ADD2":"","TOWN":"CHARLESTOWN","STATUS":"ACTIVE","ONESTOP_LINK":"http://www4.des.state.nh.us/DESOneStop/ASFDetail.aspx?ID=2400","LONGITUDE":"-72.37","LATITUDE":"43.23"},"id":26},{"type":"Feature","geometry":{"type":"Point","coordinates":[-72.39289960022907,43.327054800249776]},"properties":{"OBJECTID":"27","MASTERID":"15964","FACILITY_ID":"2401","SITE_NAME":"CLASS A AUTO & TRUCK, LLC","ADDRESS":"1176 RIVER ROAD","ADD2":"","TOWN":"CHARLESTOWN","STATUS":"ACTIVE","ONESTOP_LINK":"http://www4.des.state.nh.us/DESOneStop/ASFDetail.aspx?ID=2401","LONGITUDE":"-72.39","LATITUDE":"43.33"},"id":27},{"type":"Feature","geometry":{"type":"Point","coordinates":[-71.20521109960762,42.96597499978312]},"properties":{"OBJECTID":"28","MASTERID":"54615","FACILITY_ID":"2402","SITE_NAME":"LECLAIR'S GARAGE INC","ADDRESS":"400 FREEMONT RD","ADD2":"","TOWN":"CHESTER","STATUS":"ACTIVE","ONESTOP_LINK":"http://www4.des.state.nh.us/DESOneStop/ASFDetail.aspx?ID=2402","LONGITUDE":"-71.21","LATITUDE":"42.97"},"id":28},{"type":"Feature","geometry":{"type":"Point","coordinates":[-71.4331242993861,43.245369099925064]},"properties":{"OBJECTID":"29","MASTERID":"55818","FACILITY_ID":"2404","SITE_NAME":"CHICHESTER AUTO","ADDRESS":"313 DOVER RD","ADD2":"","TOWN":"CHICHESTER","STATUS":"ACTIVE","ONESTOP_LINK":"http://www4.des.state.nh.us/DESOneStop/ASFDetail.aspx?ID=2404","LONGITUDE":"-71.43","LATITUDE":"43.25"},"id":29},{"type":"Feature","geometry":{"type":"Point","coordinates":[-72.28209369950798,43.369777100290904]},"properties":{"OBJECTID":"30","MASTERID":"40962","FACILITY_ID":"2407","SITE_NAME":"GENERAL AUTO SALVAGE CO., INC","ADDRESS":"OLD NEWPORT RD","ADD2":"","TOWN":"CLAREMONT","STATUS":"ACTIVE","ONESTOP_LINK":"http://www4.des.state.nh.us/DESOneStop/ASFDetail.aspx?ID=2407","LONGITUDE":"-72.28","LATITUDE":"43.37"},"id":30},{"type":"Feature","geometry":{"type":"Point","coordinates":[-72.32215480032826,43.3664138002725]},"properties":{"OBJECTID":"31","MASTERID":"41004","FACILITY_ID":"2408","SITE_NAME":"MAURICE AUTO & TRUCK PARTS","ADDRESS":"299 WASHINGTON ST","ADD2":"","TOWN":"CLAREMONT","STATUS":"ACTIVE","ONESTOP_LINK":"http://www4.des.state.nh.us/DESOneStop/ASFDetail.aspx?ID=2408","LONGITUDE":"-72.32","LATITUDE":"43.37"},"id":31},{"type":"Feature","geometry":{"type":"Point","coordinates":[-71.5218187004539,43.18767459992055]},"properties":{"OBJECTID":"32","MASTERID":"41141","FACILITY_ID":"2417","SITE_NAME":"CENTRAL NH SALES, INC.","ADDRESS":"54 BASIN STREET","ADD2":"","TOWN":"CONCORD","STATUS":"ACTIVE","ONESTOP_LINK":"http://www4.des.state.nh.us/DESOneStop/ASFDetail.aspx?ID=2417","LONGITUDE":"-71.52","LATITUDE":"43.19"},"id":32},{"type":"Feature","geometry":{"type":"Point","coordinates":[-71.06303329959084,43.994882999690454]},"properties":{"OBJECTID":"33","MASTERID":"55395","FACILITY_ID":"2419","SITE_NAME":"PLUM POTTER AUTOMOTIVE","ADDRESS":"RTE 302","ADD2":"","TOWN":"CONWAY","STATUS":"ACTIVE","ONESTOP_LINK":"http://www4.des.state.nh.us/DESOneStop/ASFDetail.aspx?ID=2419","LONGITUDE":"-71.06","LATITUDE":"43.99"},"id":33},{"type":"Feature","geometry":{"type":"Point","coordinates":[-71.08821350013032,44.00575829978385]},"properties":{"OBJECTID":"34","MASTERID":"55752","FACILITY_ID":"2421","SITE_NAME":"BOB BRYANT'S WRECKER SERVICE","ADDRESS":"RTE 302","ADD2":"","TOWN":"CONWAY","STATUS":"ACTIVE","ONESTOP_LINK":"http://www4.des.state.nh.us/DESOneStop/ASFDetail.aspx?ID=2421","LONGITUDE":"-71.09","LATITUDE":"44.01"},"id":34},{"type":"Feature","geometry":{"type":"Point","coordinates":[-71.64728849975833,44.41313050009308]},"properties":{"OBJECTID":"35","MASTERID":"57162","FACILITY_ID":"2425","SITE_NAME":"L & H AUTO","ADDRESS":"416 FRENCH RD","ADD2":"","TOWN":"DALTON","STATUS":"ACTIVE","ONESTOP_LINK":"http://www4.des.state.nh.us/DESOneStop/ASFDetail.aspx?ID=2425","LONGITUDE":"-71.65","LATITUDE":"44.41"},"id":35},{"type":"Feature","geometry":{"type":"Point","coordinates":[-71.72704369964886,44.365633299667174]},"properties":{"OBJECTID":"36","MASTERID":"56883","FACILITY_ID":"2426","SITE_NAME":"RED'S AUTO WRECKING & SALVAGE","ADDRESS":"541 HARRIMAN RD","ADD2":"","TOWN":"DALTON","STATUS":"ACTIVE","ONESTOP_LINK":"http://www4.des.state.nh.us/DESOneStop/ASFDetail.aspx?ID=2426","LONGITUDE":"-71.73","LATITUDE":"44.37"},"id":36},{"type":"Feature","geometry":{"type":"Point","coordinates":[-71.89157179971026,43.10594439955927]},"properties":{"OBJECTID":"37","MASTERID":"55921","FACILITY_ID":"2430","SITE_NAME":"TOWN LINE AUTO SALVAGE","ADDRESS":"RTE 149","ADD2":"","TOWN":"DEERING","STATUS":"ACTIVE","ONESTOP_LINK":"http://www4.des.state.nh.us/DESOneStop/ASFDetail.aspx?ID=2430","LONGITUDE":"-71.89","LATITUDE":"43.11"},"id":37},{"type":"Feature","geometry":{"type":"Point","coordinates":[-71.90962220012115,43.07581869965974]},"properties":{"OBJECTID":"38","MASTERID":"56336","FACILITY_ID":"2431","SITE_NAME":"GREENE'S GARAGE","ADDRESS":"2073 2ND NH TURNPIKE","ADD2":"","TOWN":"DEERING","STATUS":"ACTIVE","ONESTOP_LINK":"http://www4.des.state.nh.us/DESOneStop/ASFDetail.aspx?ID=2431","LONGITUDE":"-71.91","LATITUDE":"43.08"},"id":38},{"type":"Feature","geometry":{"type":"Point","coordinates":[-71.2602332996942,42.86864370019723]},"properties":{"OBJECTID":"39","MASTERID":"41538","FACILITY_ID":"2432","SITE_NAME":"WEBER AUTO & TRUCK PARTS, INC.","ADDRESS":"135 ISLAND POND RD","ADD2":"","TOWN":"DERRY","STATUS":"ACTIVE","ONESTOP_LINK":"http://www4.des.state.nh.us/DESOneStop/ASFDetail.aspx?ID=2432","LONGITUDE":"-71.26","LATITUDE":"42.87"},"id":39},{"type":"Feature","geometry":{"type":"Point","coordinates":[-71.30520269956796,42.87747709985092]},"properties":{"OBJECTID":"40","MASTERID":"1230","FACILITY_ID":"2433","SITE_NAME":"WATT'S AUTO SALVAGE, INC.","ADDRESS":"109 ROCKINGHAM RD","ADD2":"","TOWN":"DERRY","STATUS":"ACTIVE","ONESTOP_LINK":"http://www4.des.state.nh.us/DESOneStop/ASFDetail.aspx?ID=2433","LONGITUDE":"-71.31","LATITUDE":"42.88"},"id":40},{"type":"Feature","geometry":{"type":"Point","coordinates":[-71.04243300005693,43.79260239997619]},"properties":{"OBJECTID":"41","MASTERID":"16417","FACILITY_ID":"2437","SITE_NAME":"THURSTON PROPERTY","ADDRESS":"48 DRAKE RD","ADD2":"","TOWN":"EFFINGHAM","STATUS":"ACTIVE","ONESTOP_LINK":"http://www4.des.state.nh.us/DESOneStop/ASFDetail.aspx?ID=2437","LONGITUDE":"-71.04","LATITUDE":"43.79"},"id":41},{"type":"Feature","geometry":{"type":"Point","coordinates":[-72.08573299979295,43.57927980015219]},"properties":{"OBJECTID":"42","MASTERID":"40824","FACILITY_ID":"2439","SITE_NAME":"CHASE'S AUTO SALVAGE, INC.","ADDRESS":"RTE 4A","ADD2":"","TOWN":"ENFIELD CENTER","STATUS":"ACTIVE","ONESTOP_LINK":"http://www4.des.state.nh.us/DESOneStop/ASFDetail.aspx?ID=2439","LONGITUDE":"-72.09","LATITUDE":"43.58"},"id":42},{"type":"Feature","geometry":{"type":"Point","coordinates":[-71.10295270051115,43.03055479987877]},"properties":{"OBJECTID":"43","MASTERID":"51297","FACILITY_ID":"2441","SITE_NAME":"EPPING AUTO SALES & SALVAGE","ADDRESS":"49 JENNESS RD","ADD2":"","TOWN":"EPPING","STATUS":"ACTIVE","ONESTOP_LINK":"http://www4.des.state.nh.us/DESOneStop/ASFDetail.aspx?ID=2441","LONGITUDE":"-71.10","LATITUDE":"43.03"},"id":43},{"type":"Feature","geometry":{"type":"Point","coordinates":[-71.11173880010605,43.03164100014838]},"properties":{"OBJECTID":"44","MASTERID":"55926","FACILITY_ID":"2443","SITE_NAME":"TIM & JONIE'S TOWING/AUTO RECYCLING","ADDRESS":"97 JENNESS RD","ADD2":"","TOWN":"EPPING","STATUS":"ACTIVE","ONESTOP_LINK":"http://www4.des.state.nh.us/DESOneStop/ASFDetail.aspx?ID=2443","LONGITUDE":"-71.11","LATITUDE":"43.03"},"id":44},{"type":"Feature","geometry":{"type":"Point","coordinates":[-71.32279100049828,43.22321599963154]},"properties":{"OBJECTID":"45","MASTERID":"54045","FACILITY_ID":"2447","SITE_NAME":"H. E. R. & W.","ADDRESS":"169 OLD TURNPIKE ROAD","ADD2":"","TOWN":"EPSOM","STATUS":"ACTIVE","ONESTOP_LINK":"http://www4.des.state.nh.us/DESOneStop/ASFDetail.aspx?ID=2447","LONGITUDE":"-71.32","LATITUDE":"43.22"},"id":45},{"type":"Feature","geometry":{"type":"Point","coordinates":[-71.32133259988397,43.22338539987516]},"properties":{"OBJECTID":"46","MASTERID":"44871","FACILITY_ID":"2448","SITE_NAME":"PONDEROSA SALVAGE","ADDRESS":"78 WHITE BIRCH LANE","ADD2":"","TOWN":"EPSOM","STATUS":"ACTIVE","ONESTOP_LINK":"http://www4.des.state.nh.us/DESOneStop/ASFDetail.aspx?ID=2448","LONGITUDE":"-71.32","LATITUDE":"43.22"},"id":46},{"type":"Feature","geometry":{"type":"Point","coordinates":[-71.11579159955537,43.36825209977972]},"properties":{"OBJECTID":"47","MASTERID":"55745","FACILITY_ID":"2453","SITE_NAME":"BILL BAXTER AUTO SALVAGE","ADDRESS":"58 A-1 TEN ROD ROAD","ADD2":"","TOWN":"FARMINGTON","STATUS":"ACTIVE","ONESTOP_LINK":"http://www4.des.state.nh.us/DESOneStop/ASFDetail.aspx?ID=2453","LONGITUDE":"-71.12","LATITUDE":"43.37"},"id":47},{"type":"Feature","geometry":{"type":"Point","coordinates":[-72.13158260044277,42.775643699628645]},"properties":{"OBJECTID":"48","MASTERID":"44798","FACILITY_ID":"2456","SITE_NAME":"BAILEY'S GARAGE","ADDRESS":"RTE 12 S","ADD2":"","TOWN":"FITZWILLIAM","STATUS":"ACTIVE","ONESTOP_LINK":"http://www4.des.state.nh.us/DESOneStop/ASFDetail.aspx?ID=2456","LONGITUDE":"-72.13","LATITUDE":"42.78"},"id":48},{"type":"Feature","geometry":{"type":"Point","coordinates":[-72.11039439954939,42.75711379973639]},"properties":{"OBJECTID":"49","MASTERID":"44790","FACILITY_ID":"2457","SITE_NAME":"NICK'S USED CARS & PARTS, LLC","ADDRESS":"ROUTE 125","ADD2":"","TOWN":"FITZWILLIAM","STATUS":"ACTIVE","ONESTOP_LINK":"http://www4.des.state.nh.us/DESOneStop/ASFDetail.aspx?ID=2457","LONGITUDE":"-72.11","LATITUDE":"42.76"},"id":49},{"type":"Feature","geometry":{"type":"Point","coordinates":[-71.82460209945764,42.999580200444974]},"properties":{"OBJECTID":"50","MASTERID":"57043","FACILITY_ID":"2459","SITE_NAME":"PHILBRICK JUNKYARD","ADDRESS":"125 PLEASANT POND RD","ADD2":"","TOWN":"FRANCESTOWN","STATUS":"ACTIVE","ONESTOP_LINK":"http://www4.des.state.nh.us/DESOneStop/ASFDetail.aspx?ID=2459","LONGITUDE":"-71.82","LATITUDE":"43.00"},"id":50},{"type":"Feature","geometry":{"type":"Point","coordinates":[-71.75193049952061,44.208969400094134]},"properties":{"OBJECTID":"51","MASTERID":"1601","FACILITY_ID":"2460","SITE_NAME":"HUNT'S AUTO CENTER","ADDRESS":"664 EASTON RD","ADD2":"","TOWN":"FRANCONIA","STATUS":"ACTIVE","ONESTOP_LINK":"http://www4.des.state.nh.us/DESOneStop/ASFDetail.aspx?ID=2460","LONGITUDE":"-71.75","LATITUDE":"44.21"},"id":51},{"type":"Feature","geometry":{"type":"Point","coordinates":[-71.09292459984226,42.967210399876066]},"properties":{"OBJECTID":"52","MASTERID":"44737","FACILITY_ID":"2461","SITE_NAME":"ACTION AUTO BODY & SERVICE","ADDRESS":"928 MAIN STREET","ADD2":"","TOWN":"FREMONT","STATUS":"ACTIVE","ONESTOP_LINK":"http://www4.des.state.nh.us/DESOneStop/ASFDetail.aspx?ID=2461","LONGITUDE":"-71.09","LATITUDE":"42.97"},"id":52},{"type":"Feature","geometry":{"type":"Point","coordinates":[-72.26216659952435,43.05187220020468]},"properties":{"OBJECTID":"53","MASTERID":"1727","FACILITY_ID":"2464","SITE_NAME":"BILL'S GARAGE","ADDRESS":"19 BANKS ROAD","ADD2":"","TOWN":"GILSUM","STATUS":"ACTIVE","ONESTOP_LINK":"http://www4.des.state.nh.us/DESOneStop/ASFDetail.aspx?ID=2464","LONGITUDE":"-72.26","LATITUDE":"43.05"},"id":53},{"type":"Feature","geometry":{"type":"Point","coordinates":[-71.52469650034703,42.988891299813865]},"properties":{"OBJECTID":"54","MASTERID":"51497","FACILITY_ID":"2466","SITE_NAME":"HEBERT TOWING, INC.","ADDRESS":"516 SHIRLEY HILL ROAD","ADD2":"","TOWN":"GOFFSTOWN","STATUS":"ACTIVE","ONESTOP_LINK":"http://www4.des.state.nh.us/DESOneStop/ASFDetail.aspx?ID=2466","LONGITUDE":"-71.52","LATITUDE":"42.99"},"id":54},{"type":"Feature","geometry":{"type":"Point","coordinates":[-72.09688020023026,43.337474600070834]},"properties":{"OBJECTID":"55","MASTERID":"57059","FACILITY_ID":"2469","SITE_NAME":"GOSHEN AUTO WRECKING, CO.","ADDRESS":"2508 BROOK ROAD","ADD2":"","TOWN":"GOSHEN","STATUS":"ACTIVE","ONESTOP_LINK":"http://www4.des.state.nh.us/DESOneStop/ASFDetail.aspx?ID=2469","LONGITUDE":"-72.10","LATITUDE":"43.34"},"id":55},{"type":"Feature","geometry":{"type":"Point","coordinates":[-71.92986600044246,43.55996380008466]},"properties":{"OBJECTID":"56","MASTERID":"55933","FACILITY_ID":"2470","SITE_NAME":"V. H. MCDOW & SON SALVAGE","ADDRESS":"11 MCDOW LANE","ADD2":"","TOWN":"GRAFTON","STATUS":"ACTIVE","ONESTOP_LINK":"http://www4.des.state.nh.us/DESOneStop/ASFDetail.aspx?ID=2470","LONGITUDE":"-71.93","LATITUDE":"43.56"},"id":56},{"type":"Feature","geometry":{"type":"Point","coordinates":[-71.84464680019575,42.917296499967115]},"properties":{"OBJECTID":"57","MASTERID":"53987","FACILITY_ID":"2486","SITE_NAME":"KEMP'S AUTO","ADDRESS":"40 RUSSELL STATION ROAD","ADD2":"","TOWN":"GREENFIELD","STATUS":"ACTIVE","ONESTOP_LINK":"http://www4.des.state.nh.us/DESOneStop/ASFDetail.aspx?ID=2486","LONGITUDE":"-71.84","LATITUDE":"42.92"},"id":57},{"type":"Feature","geometry":{"type":"Point","coordinates":[-71.84345800053732,43.786046800240285]},"properties":{"OBJECTID":"58","MASTERID":"43550","FACILITY_ID":"2489","SITE_NAME":"BIXBY'S AUTO","ADDRESS":"665 HALLS BROOK ROAD","ADD2":"","TOWN":"GROTON","STATUS":"ACTIVE","ONESTOP_LINK":"http://www4.des.state.nh.us/DESOneStop/ASFDetail.aspx?ID=2489","LONGITUDE":"-71.84","LATITUDE":"43.79"},"id":58},{"type":"Feature","geometry":{"type":"Point","coordinates":[-71.7846385004083,43.184952400133135]},"properties":{"OBJECTID":"59","MASTERID":"55937","FACILITY_ID":"2501","SITE_NAME":"MORSE PROPERTY","ADDRESS":"6 OLD WEST HOPKINTON RD","ADD2":"","TOWN":"HENNIKER","STATUS":"ACTIVE","ONESTOP_LINK":"http://www4.des.state.nh.us/DESOneStop/ASFDetail.aspx?ID=2501","LONGITUDE":"-71.78","LATITUDE":"43.18"},"id":59},{"type":"Feature","geometry":{"type":"Point","coordinates":[-71.88588300030852,43.12006599989899]},"properties":{"OBJECTID":"60","MASTERID":"55938","FACILITY_ID":"2502","SITE_NAME":"LIVINGSTON'S AUTO REPAIR","ADDRESS":"123 HENNIKER STREET","ADD2":"PO BOX 344","TOWN":"HILLSBORO","STATUS":"ACTIVE","ONESTOP_LINK":"http://www4.des.state.nh.us/DESOneStop/ASFDetail.aspx?ID=2502","LONGITUDE":"-71.89","LATITUDE":"43.12"},"id":60},{"type":"Feature","geometry":{"type":"Point","coordinates":[-71.52776869961727,43.71005829978792]},"properties":{"OBJECTID":"61","MASTERID":"54046","FACILITY_ID":"2504","SITE_NAME":"ROYEA'S AUTO WRECKING","ADDRESS":"EAST HOLDERNESS ROAD","ADD2":"","TOWN":"HOLDERNESS","STATUS":"ACTIVE","ONESTOP_LINK":"http://www4.des.state.nh.us/DESOneStop/ASFDetail.aspx?ID=2504","LONGITUDE":"-71.53","LATITUDE":"43.71"},"id":61},{"type":"Feature","geometry":{"type":"Point","coordinates":[-71.43504680043195,43.02557430043575]},"properties":{"OBJECTID":"62","MASTERID":"16229","FACILITY_ID":"2505","SITE_NAME":"AL LAMBERT'S GARAGE","ADDRESS":"63 MAMMOTH RD","ADD2":"","TOWN":"HOOKSETT","STATUS":"ACTIVE","ONESTOP_LINK":"http://www4.des.state.nh.us/DESOneStop/ASFDetail.aspx?ID=2505","LONGITUDE":"-71.44","LATITUDE":"43.03"},"id":62},{"type":"Feature","geometry":{"type":"Point","coordinates":[-71.4287770998084,42.751649999692766]},"properties":{"OBJECTID":"63","MASTERID":"44970","FACILITY_ID":"2507","SITE_NAME":"TINY'S GARAGE","ADDRESS":"5 ATWOOD AVE","ADD2":"","TOWN":"HUDSON","STATUS":"ACTIVE","ONESTOP_LINK":"http://www4.des.state.nh.us/DESOneStop/ASFDetail.aspx?ID=2507","LONGITUDE":"-71.43","LATITUDE":"42.75"},"id":63},{"type":"Feature","geometry":{"type":"Point","coordinates":[-72.27523819993563,42.9194992996944]},"properties":{"OBJECTID":"64","MASTERID":"45312","FACILITY_ID":"2511","SITE_NAME":"KEENE AUTO BODY, INC.","ADDRESS":"543 MAIN ST","ADD2":"","TOWN":"KEENE","STATUS":"ACTIVE","ONESTOP_LINK":"http://www4.des.state.nh.us/DESOneStop/ASFDetail.aspx?ID=2511","LONGITUDE":"-72.28","LATITUDE":"42.92"},"id":64},{"type":"Feature","geometry":{"type":"Point","coordinates":[-71.03856070052137,42.90715000006138]},"properties":{"OBJECTID":"65","MASTERID":"16586","FACILITY_ID":"2516","SITE_NAME":"JOHN'S TRUCK & AUTO SALVAGE","ADDRESS":"71A NEW BOSTON ROAD","ADD2":"","TOWN":"KINGSTON","STATUS":"ACTIVE","ONESTOP_LINK":"http://www4.des.state.nh.us/DESOneStop/ASFDetail.aspx?ID=2516","LONGITUDE":"-71.04","LATITUDE":"42.91"},"id":65},{"type":"Feature","geometry":{"type":"Point","coordinates":[-71.03881069966708,42.92693259990816]},"properties":{"OBJECTID":"66","MASTERID":"55942","FACILITY_ID":"2517","SITE_NAME":"KEN'S AUTO SALES & SALVAGE","ADDRESS":"18 POWWOW RIVER ROAD","ADD2":"2 ROUTE 107A","TOWN":"KINGSTON","STATUS":"ACTIVE","ONESTOP_LINK":"http://www4.des.state.nh.us/DESOneStop/ASFDetail.aspx?ID=2517","LONGITUDE":"-71.04","LATITUDE":"42.93"},"id":66},{"type":"Feature","geometry":{"type":"Point","coordinates":[-71.44875800000946,43.510502700208605]},"properties":{"OBJECTID":"67","MASTERID":"55943","FACILITY_ID":"2518","SITE_NAME":"REED'S AUTO WRECKING CO","ADDRESS":"89 FRANK BEAN RD","ADD2":"","TOWN":"LACONIA","STATUS":"ACTIVE","ONESTOP_LINK":"http://www4.des.state.nh.us/DESOneStop/ASFDetail.aspx?ID=2518","LONGITUDE":"-71.45","LATITUDE":"43.51"},"id":67},{"type":"Feature","geometry":{"type":"Point","coordinates":[-71.5668575996836,44.50035549961466]},"properties":{"OBJECTID":"68","MASTERID":"55944","FACILITY_ID":"2519","SITE_NAME":"RIDEOUT'S REPAIR","ADDRESS":"355 CAUSEWAY ST","ADD2":"","TOWN":"LANCASTER","STATUS":"ACTIVE","ONESTOP_LINK":"http://www4.des.state.nh.us/DESOneStop/ASFDetail.aspx?ID=2519","LONGITUDE":"-71.57","LATITUDE":"44.50"},"id":68},{"type":"Feature","geometry":{"type":"Point","coordinates":[-72.32829930030167,43.62121319959305]},"properties":{"OBJECTID":"69","MASTERID":"41797","FACILITY_ID":"2521","SITE_NAME":"JANCI METALS RECYCLING, INC.","ADDRESS":"RTE 12A","ADD2":"","TOWN":"LEBANON","STATUS":"ACTIVE","ONESTOP_LINK":"http://www4.des.state.nh.us/DESOneStop/ASFDetail.aspx?ID=2521","LONGITUDE":"-72.33","LATITUDE":"43.62"},"id":69},{"type":"Feature","geometry":{"type":"Point","coordinates":[-72.1757604001733,43.22871870015509]},"properties":{"OBJECTID":"70","MASTERID":"46933","FACILITY_ID":"2523","SITE_NAME":"EAST LEMPSTER RECYCLING, LLC","ADDRESS":"902 RTE 10","ADD2":"","TOWN":"LEMPSTER","STATUS":"ACTIVE","ONESTOP_LINK":"http://www4.des.state.nh.us/DESOneStop/ASFDetail.aspx?ID=2523","LONGITUDE":"-72.18","LATITUDE":"43.23"},"id":70},{"type":"Feature","geometry":{"type":"Point","coordinates":[-71.45484160019053,42.885783000263245]},"properties":{"OBJECTID":"71","MASTERID":"44164","FACILITY_ID":"2526","SITE_NAME":"WARREN'S AUTO BODY","ADDRESS":"507 CHARLES BANCROFT HWY","ADD2":"","TOWN":"LITCHFIELD","STATUS":"ACTIVE","ONESTOP_LINK":"http://www4.des.state.nh.us/DESOneStop/ASFDetail.aspx?ID=2526","LONGITUDE":"-71.45","LATITUDE":"42.89"},"id":71},{"type":"Feature","geometry":{"type":"Point","coordinates":[-71.75461659948257,44.3039387999225]},"properties":{"OBJECTID":"72","MASTERID":"55948","FACILITY_ID":"2529","SITE_NAME":"VON'S AUTO REPAIR","ADDRESS":"317 HIGHLAND AVE","ADD2":"","TOWN":"LITTLETON","STATUS":"ACTIVE","ONESTOP_LINK":"http://www4.des.state.nh.us/DESOneStop/ASFDetail.aspx?ID=2529","LONGITUDE":"-71.75","LATITUDE":"44.30"},"id":72},{"type":"Feature","geometry":{"type":"Point","coordinates":[-71.38511909995853,42.91641659971007]},"properties":{"OBJECTID":"73","MASTERID":"57067","FACILITY_ID":"2531","SITE_NAME":"LONDONDERRY SALVAGE","ADDRESS":"211 ROCKINGHAM RD","ADD2":"RTE 28","TOWN":"LONDONDERRY","STATUS":"ACTIVE","ONESTOP_LINK":"http://www4.des.state.nh.us/DESOneStop/ASFDetail.aspx?ID=2531","LONGITUDE":"-71.39","LATITUDE":"42.92"},"id":73},{"type":"Feature","geometry":{"type":"Point","coordinates":[-71.38906349942128,42.89731069989954]},"properties":{"OBJECTID":"74","MASTERID":"55949","FACILITY_ID":"2532","SITE_NAME":"HILL AUTO","ADDRESS":"7 LITCHFIELD RD","ADD2":"","TOWN":"LONDONDERRY","STATUS":"ACTIVE","ONESTOP_LINK":"http://www4.des.state.nh.us/DESOneStop/ASFDetail.aspx?ID=2532","LONGITUDE":"-71.39","LATITUDE":"42.90"},"id":74},{"type":"Feature","geometry":{"type":"Point","coordinates":[-71.40615829978252,42.90629160034759]},"properties":{"OBJECTID":"75","MASTERID":"50663","FACILITY_ID":"2533","SITE_NAME":"MURRAY'S AUTO RECYCLING","ADDRESS":"C/O DUDEK AUTO RECYCLING, INC.","ADD2":"55 HALL RD","TOWN":"LONDONDERRY","STATUS":"ACTIVE","ONESTOP_LINK":"http://www4.des.state.nh.us/DESOneStop/ASFDetail.aspx?ID=2533","LONGITUDE":"-71.41","LATITUDE":"42.91"},"id":75},{"type":"Feature","geometry":{"type":"Point","coordinates":[-71.38554959989922,42.9160943997894]},"properties":{"OBJECTID":"76","MASTERID":"55950","FACILITY_ID":"2534","SITE_NAME":"S & S METALS RECYCLING, INC.","ADDRESS":"196 ROCKINGHAM RD","ADD2":"","TOWN":"LONDONDERRY","STATUS":"ACTIVE","ONESTOP_LINK":"http://www4.des.state.nh.us/DESOneStop/ASFDetail.aspx?ID=2534","LONGITUDE":"-71.39","LATITUDE":"42.92"},"id":76},{"type":"Feature","geometry":{"type":"Point","coordinates":[-71.47074099991411,43.334752400116614]},"properties":{"OBJECTID":"77","MASTERID":"55951","FACILITY_ID":"2536","SITE_NAME":"LANES AUTOMOTIVE GROUP, LLC","ADDRESS":"737 RTE 106 N","ADD2":"","TOWN":"LOUDON","STATUS":"ACTIVE","ONESTOP_LINK":"http://www4.des.state.nh.us/DESOneStop/ASFDetail.aspx?ID=2536","LONGITUDE":"-71.47","LATITUDE":"43.33"},"id":77},{"type":"Feature","geometry":{"type":"Point","coordinates":[-71.43766630014268,43.3648250001671]},"properties":{"OBJECTID":"78","MASTERID":"55952","FACILITY_ID":"2538","SITE_NAME":"J. L. GREEN & ASSOCIATES","ADDRESS":"416 BUMFAGON ROAD","ADD2":"","TOWN":"LOUDON","STATUS":"ACTIVE","ONESTOP_LINK":"http://www4.des.state.nh.us/DESOneStop/ASFDetail.aspx?ID=2538","LONGITUDE":"-71.44","LATITUDE":"43.36"},"id":78},{"type":"Feature","geometry":{"type":"Point","coordinates":[-71.47247979954192,42.9900496000566]},"properties":{"OBJECTID":"79","MASTERID":"42158","FACILITY_ID":"2548","SITE_NAME":"B ROVNER & CO INC","ADDRESS":"18 CHAGNON ST","ADD2":"","TOWN":"MANCHESTER","STATUS":"ACTIVE","ONESTOP_LINK":"http://www4.des.state.nh.us/DESOneStop/ASFDetail.aspx?ID=2548","LONGITUDE":"-71.47","LATITUDE":"42.99"},"id":79},{"type":"Feature","geometry":{"type":"Point","coordinates":[-72.19718300038436,42.90744999981554]},"properties":{"OBJECTID":"80","MASTERID":"57155","FACILITY_ID":"2552","SITE_NAME":"DAVE'S AUTOMOTIVE ENTERPRISES","ADDRESS":"42 ROXBURY RD","ADD2":"","TOWN":"MARLBOROUGH","STATUS":"ACTIVE","ONESTOP_LINK":"http://www4.des.state.nh.us/DESOneStop/ASFDetail.aspx?ID=2552","LONGITUDE":"-72.20","LATITUDE":"42.91"},"id":80},{"type":"Feature","geometry":{"type":"Point","coordinates":[-71.50778050007482,43.66589160003184]},"properties":{"OBJECTID":"81","MASTERID":"55956","FACILITY_ID":"2553","SITE_NAME":"DON'S REPAIR","ADDRESS":"LOT 007 ON PHILBROOK AVE","ADD2":"","TOWN":"MEREDITH","STATUS":"ACTIVE","ONESTOP_LINK":"http://www4.des.state.nh.us/DESOneStop/ASFDetail.aspx?ID=2553","LONGITUDE":"-71.51","LATITUDE":"43.67"},"id":81},{"type":"Feature","geometry":{"type":"Point","coordinates":[-71.50393610020836,42.86813539981673]},"properties":{"OBJECTID":"82","MASTERID":"48167","FACILITY_ID":"2557","SITE_NAME":"MATT'S SALVAGE","ADDRESS":"54 BABOOSIC LAKE ROAD","ADD2":"","TOWN":"MERRIMACK","STATUS":"ACTIVE","ONESTOP_LINK":"http://www4.des.state.nh.us/DESOneStop/ASFDetail.aspx?ID=2557","LONGITUDE":"-71.50","LATITUDE":"42.87"},"id":82},{"type":"Feature","geometry":{"type":"Point","coordinates":[-71.46042219989923,42.90324440033971]},"properties":{"OBJECTID":"83","MASTERID":"57070","FACILITY_ID":"2560","SITE_NAME":"MAJESTIC MOTORS","ADDRESS":"734R DW HIGHWAY","ADD2":"","TOWN":"MERRIMACK","STATUS":"ACTIVE","ONESTOP_LINK":"http://www4.des.state.nh.us/DESOneStop/ASFDetail.aspx?ID=2560","LONGITUDE":"-71.46","LATITUDE":"42.90"},"id":83},{"type":"Feature","geometry":{"type":"Point","coordinates":[-71.06473049964491,43.47433539990019]},"properties":{"OBJECTID":"84","MASTERID":"55960","FACILITY_ID":"2563","SITE_NAME":"DARYLL'S AUTO REPAIR","ADDRESS":"91 KINGS HWY","ADD2":"","TOWN":"MIDDLETON","STATUS":"ACTIVE","ONESTOP_LINK":"http://www4.des.state.nh.us/DESOneStop/ASFDetail.aspx?ID=2563","LONGITUDE":"-71.06","LATITUDE":"43.47"},"id":84},{"type":"Feature","geometry":{"type":"Point","coordinates":[-71.06069439961018,43.46894099988021]},"properties":{"OBJECTID":"85","MASTERID":"3814","FACILITY_ID":"2564","SITE_NAME":"DIPRIZIO GMC TRUCKS INC","ADDRESS":"10 KINGS HWY","ADD2":"ROUTE 153","TOWN":"MIDDLETON","STATUS":"ACTIVE","ONESTOP_LINK":"http://www4.des.state.nh.us/DESOneStop/ASFDetail.aspx?ID=2564","LONGITUDE":"-71.06","LATITUDE":"43.47"},"id":85},{"type":"Feature","geometry":{"type":"Point","coordinates":[-70.96376660061064,43.4990551996069]},"properties":{"OBJECTID":"86","MASTERID":"57075","FACILITY_ID":"2568","SITE_NAME":"L. ENTERPRISES","ADDRESS":"424 APPLEBEE RD","ADD2":"","TOWN":"MILTON","STATUS":"ACTIVE","ONESTOP_LINK":"http://www4.des.state.nh.us/DESOneStop/ASFDetail.aspx?ID=2568","LONGITUDE":"-70.96","LATITUDE":"43.50"},"id":86},{"type":"Feature","geometry":{"type":"Point","coordinates":[-71.14993569971284,43.380390999871295]},"properties":{"OBJECTID":"87","MASTERID":"55757","FACILITY_ID":"2571","SITE_NAME":"CAMERON'S AUTO SALVAGE","ADDRESS":"14 CAMERON ROAD","ADD2":"","TOWN":"NEW DURHAM","STATUS":"ACTIVE","ONESTOP_LINK":"http://www4.des.state.nh.us/DESOneStop/ASFDetail.aspx?ID=2571","LONGITUDE":"-71.15","LATITUDE":"43.38"},"id":87},{"type":"Feature","geometry":{"type":"Point","coordinates":[-71.87996039966069,42.761102699701354]},"properties":{"OBJECTID":"88","MASTERID":"43971","FACILITY_ID":"2576","SITE_NAME":"TUTTLE'S AUTO PARTS","ADDRESS":"860 TURNPIKE RD","ADD2":"RTE 123","TOWN":"NEW IPSWICH","STATUS":"ACTIVE","ONESTOP_LINK":"http://www4.des.state.nh.us/DESOneStop/ASFDetail.aspx?ID=2576","LONGITUDE":"-71.88","LATITUDE":"42.76"},"id":88},{"type":"Feature","geometry":{"type":"Point","coordinates":[-70.98307429997972,43.079866000368796]},"properties":{"OBJECTID":"89","MASTERID":"55741","FACILITY_ID":"2578","SITE_NAME":"BEAULIEU & WIFE","ADDRESS":"401 WADLEIGH FALLS ROAD","ADD2":"RTE 152","TOWN":"NEWMARKET","STATUS":"ACTIVE","ONESTOP_LINK":"http://www4.des.state.nh.us/DESOneStop/ASFDetail.aspx?ID=2578","LONGITUDE":"-70.98","LATITUDE":"43.08"},"id":89},{"type":"Feature","geometry":{"type":"Point","coordinates":[-71.49211069954436,44.57927149956619]},"properties":{"OBJECTID":"90","MASTERID":"57080","FACILITY_ID":"2590","SITE_NAME":"GOULET PROPERTY","ADDRESS":"THOMPSON RD","ADD2":"","TOWN":"NORTHUMBERLAND","STATUS":"ACTIVE","ONESTOP_LINK":"http://www4.des.state.nh.us/DESOneStop/ASFDetail.aspx?ID=2590","LONGITUDE":"-71.49","LATITUDE":"44.58"},"id":90},{"type":"Feature","geometry":{"type":"Point","coordinates":[-71.19287179938861,43.21206379983302]},"properties":{"OBJECTID":"91","MASTERID":"55999","FACILITY_ID":"2592","SITE_NAME":"K & E TRANSFER ENTERPRISES, LLC","ADDRESS":"RTE 4","ADD2":"","TOWN":"NORTHWOOD","STATUS":"ACTIVE","ONESTOP_LINK":"http://www4.des.state.nh.us/DESOneStop/ASFDetail.aspx?ID=2592","LONGITUDE":"-71.19","LATITUDE":"43.21"},"id":91},{"type":"Feature","geometry":{"type":"Point","coordinates":[-71.19405239951615,43.211341600193144]},"properties":{"OBJECTID":"92","MASTERID":"56001","FACILITY_ID":"2593","SITE_NAME":"JOHNNY'S CAR REMOVAL","ADDRESS":"699 1ST NH TURNPIKE","ADD2":"","TOWN":"NORTHWOOD","STATUS":"ACTIVE","ONESTOP_LINK":"http://www4.des.state.nh.us/DESOneStop/ASFDetail.aspx?ID=2593","LONGITUDE":"-71.19","LATITUDE":"43.21"},"id":92},{"type":"Feature","geometry":{"type":"Point","coordinates":[-71.99691350033265,43.635921800060146]},"properties":{"OBJECTID":"93","MASTERID":"56002","FACILITY_ID":"2595","SITE_NAME":"MORRILL SALVAGE","ADDRESS":"US RTE 4","ADD2":"","TOWN":"ORANGE","STATUS":"ACTIVE","ONESTOP_LINK":"http://www4.des.state.nh.us/DESOneStop/ASFDetail.aspx?ID=2595","LONGITUDE":"-72.00","LATITUDE":"43.64"},"id":93},{"type":"Feature","geometry":{"type":"Point","coordinates":[-72.09366069994327,43.943599600001214]},"properties":{"OBJECTID":"94","MASTERID":"57084","FACILITY_ID":"2597","SITE_NAME":"MCGOFF SALVAGE","ADDRESS":"GRIMES HILL RD","ADD2":"","TOWN":"ORFORD","STATUS":"ACTIVE","ONESTOP_LINK":"http://www4.des.state.nh.us/DESOneStop/ASFDetail.aspx?ID=2597","LONGITUDE":"-72.09","LATITUDE":"43.94"},"id":94},{"type":"Feature","geometry":{"type":"Point","coordinates":[-71.35018329945464,42.767218699925856]},"properties":{"OBJECTID":"95","MASTERID":"56005","FACILITY_ID":"2602","SITE_NAME":"COOMBS USED AUTO PARTS","ADDRESS":"415 MAMMOTH RD","ADD2":"","TOWN":"PELHAM","STATUS":"ACTIVE","ONESTOP_LINK":"http://www4.des.state.nh.us/DESOneStop/ASFDetail.aspx?ID=2602","LONGITUDE":"-71.35","LATITUDE":"42.77"},"id":95},{"type":"Feature","geometry":{"type":"Point","coordinates":[-71.34658300047427,42.70893610014007]},"properties":{"OBJECTID":"96","MASTERID":"17127","FACILITY_ID":"2603","SITE_NAME":"JEAN-GUY'S USED PARTS","ADDRESS":"180 MARSH RD","ADD2":"","TOWN":"PELHAM","STATUS":"ACTIVE","ONESTOP_LINK":"http://www4.des.state.nh.us/DESOneStop/ASFDetail.aspx?ID=2603","LONGITUDE":"-71.35","LATITUDE":"42.71"},"id":96},{"type":"Feature","geometry":{"type":"Point","coordinates":[-71.30201659956893,42.74391629958366]},"properties":{"OBJECTID":"97","MASTERID":"17123","FACILITY_ID":"2604","SITE_NAME":"F GENDRON & CO","ADDRESS":"13 HOBBS RD","ADD2":"","TOWN":"PELHAM","STATUS":"ACTIVE","ONESTOP_LINK":"http://www4.des.state.nh.us/DESOneStop/ASFDetail.aspx?ID=2604","LONGITUDE":"-71.30","LATITUDE":"42.74"},"id":97},{"type":"Feature","geometry":{"type":"Point","coordinates":[-71.34279409975878,43.320266000421846]},"properties":{"OBJECTID":"98","MASTERID":"57204","FACILITY_ID":"2608","SITE_NAME":"PITTSFIELD SALVAGE","ADDRESS":"28 EATON ROAD","ADD2":"","TOWN":"PITTSFIELD","STATUS":"ACTIVE","ONESTOP_LINK":"http://www4.des.state.nh.us/DESOneStop/ASFDetail.aspx?ID=2608","LONGITUDE":"-71.34","LATITUDE":"43.32"},"id":98},{"type":"Feature","geometry":{"type":"Point","coordinates":[-71.30462219989406,43.2965385002726]},"properties":{"OBJECTID":"99","MASTERID":"56013","FACILITY_ID":"2609","SITE_NAME":"ROY RICHARDSON'S AUTO SALVAGE","ADDRESS":"260 CATAMOUNT RD","ADD2":"RTE 107","TOWN":"PITTSFIELD","STATUS":"ACTIVE","ONESTOP_LINK":"http://www4.des.state.nh.us/DESOneStop/ASFDetail.aspx?ID=2609","LONGITUDE":"-71.30","LATITUDE":"43.30"},"id":99},{"type":"Feature","geometry":{"type":"Point","coordinates":[-71.10999159961705,42.85565269967937]},"properties":{"OBJECTID":"100","MASTERID":"49010","FACILITY_ID":"2614","SITE_NAME":"CHAYA BROTHERS AUTO & SALVAGE","ADDRESS":"237 MAIN ST","ADD2":"","TOWN":"PLAISTOW","STATUS":"ACTIVE","ONESTOP_LINK":"http://www4.des.state.nh.us/DESOneStop/ASFDetail.aspx?ID=2614","LONGITUDE":"-71.11","LATITUDE":"42.86"},"id":100},{"type":"Feature","geometry":{"type":"Point","coordinates":[-71.05760269945283,42.82450479975861]},"properties":{"OBJECTID":"101","MASTERID":"13606","FACILITY_ID":"2615","SITE_NAME":"BRANDY BROW AUTO PARTS, INC.","ADDRESS":"89 NEWTON ROAD","ADD2":"","TOWN":"PLAISTOW","STATUS":"ACTIVE","ONESTOP_LINK":"http://www4.des.state.nh.us/DESOneStop/ASFDetail.aspx?ID=2615","LONGITUDE":"-71.06","LATITUDE":"42.82"},"id":101},{"type":"Feature","geometry":{"type":"Point","coordinates":[-71.11001940020348,42.8544555004133]},"properties":{"OBJECTID":"102","MASTERID":"13604","FACILITY_ID":"2616","SITE_NAME":"ANCHOR AUTO ANNEX","ADDRESS":"233 1/2 MAIN ST","ADD2":"","TOWN":"PLAISTOW","STATUS":"ACTIVE","ONESTOP_LINK":"http://www4.des.state.nh.us/DESOneStop/ASFDetail.aspx?ID=2616","LONGITUDE":"-71.11","LATITUDE":"42.85"},"id":102},{"type":"Feature","geometry":{"type":"Point","coordinates":[-71.7674493002733,43.77409369975883]},"properties":{"OBJECTID":"103","MASTERID":"43543","FACILITY_ID":"2619","SITE_NAME":"KELLY'S AUTO BODY, INC.","ADDRESS":"204 RTE 25","ADD2":"","TOWN":"RUMNEY","STATUS":"ACTIVE","ONESTOP_LINK":"http://www4.des.state.nh.us/DESOneStop/ASFDetail.aspx?ID=2619","LONGITUDE":"-71.77","LATITUDE":"43.77"},"id":103},{"type":"Feature","geometry":{"type":"Point","coordinates":[-70.79196349965392,43.025990999807135]},"properties":{"OBJECTID":"104","MASTERID":"4959","FACILITY_ID":"2621","SITE_NAME":"RALPH'S TRUCK SALES, INC.","ADDRESS":"2995 LAFAYETTE RD","ADD2":"","TOWN":"PORTSMOUTH","STATUS":"ACTIVE","ONESTOP_LINK":"http://www4.des.state.nh.us/DESOneStop/ASFDetail.aspx?ID=2621","LONGITUDE":"-70.79","LATITUDE":"43.03"},"id":104},{"type":"Feature","geometry":{"type":"Point","coordinates":[-71.21304159966924,43.053458299580704]},"properties":{"OBJECTID":"105","MASTERID":"57125","FACILITY_ID":"2626","SITE_NAME":"GRANTS TOWING","ADDRESS":"236 ROUTE 27","ADD2":"","TOWN":"RAYMOND","STATUS":"ACTIVE","ONESTOP_LINK":"http://www4.des.state.nh.us/DESOneStop/ASFDetail.aspx?ID=2626","LONGITUDE":"-71.21","LATITUDE":"43.05"},"id":105},{"type":"Feature","geometry":{"type":"Point","coordinates":[-71.97723819994266,42.73063259958021]},"properties":{"OBJECTID":"106","MASTERID":"55740","FACILITY_ID":"2628","SITE_NAME":"PJ SESIA & SONS/B-Z TOWING","ADDRESS":"MONOMONAC EAST","ADD2":"","TOWN":"RINDGE","STATUS":"ACTIVE","ONESTOP_LINK":"http://www4.des.state.nh.us/DESOneStop/ASFDetail.aspx?ID=2628","LONGITUDE":"-71.98","LATITUDE":"42.73"},"id":106},{"type":"Feature","geometry":{"type":"Point","coordinates":[-71.96230549952358,42.73688569987968]},"properties":{"OBJECTID":"107","MASTERID":"57128","FACILITY_ID":"2631","SITE_NAME":"BEAUREGARD PROPERTY","ADDRESS":"20 EAST MAIN STREET","ADD2":"","TOWN":"RINDGE","STATUS":"ACTIVE","ONESTOP_LINK":"http://www4.des.state.nh.us/DESOneStop/ASFDetail.aspx?ID=2631","LONGITUDE":"-71.96","LATITUDE":"42.74"},"id":107},{"type":"Feature","geometry":{"type":"Point","coordinates":[-70.97376040000209,43.34639410004793]},"properties":{"OBJECTID":"108","MASTERID":"49366","FACILITY_ID":"2633","SITE_NAME":"LAMBERT'S AUTO & TRUCK RECYCLERS","ADDRESS":"2 SALMON FALLS RD","ADD2":"","TOWN":"ROCHESTER","STATUS":"ACTIVE","ONESTOP_LINK":"http://www4.des.state.nh.us/DESOneStop/ASFDetail.aspx?ID=2633","LONGITUDE":"-70.97","LATITUDE":"43.35"},"id":108},{"type":"Feature","geometry":{"type":"Point","coordinates":[-70.97961600035654,43.35562219969189]},"properties":{"OBJECTID":"109","MASTERID":"49203","FACILITY_ID":"2634","SITE_NAME":"COLONY USED AUTO PARTS","ADDRESS":"181A MILTON ROAD","ADD2":"","TOWN":"ROCHESTER","STATUS":"ACTIVE","ONESTOP_LINK":"http://www4.des.state.nh.us/DESOneStop/ASFDetail.aspx?ID=2634","LONGITUDE":"-70.98","LATITUDE":"43.36"},"id":109},{"type":"Feature","geometry":{"type":"Point","coordinates":[-71.00110829952364,43.337441300130514]},"properties":{"OBJECTID":"110","MASTERID":"55723","FACILITY_ID":"2635","SITE_NAME":"AMERICAN USED AUTO PARTS","ADDRESS":"40 LITTLE FALL'S BRIDGE RD","ADD2":"","TOWN":"ROCHESTER","STATUS":"ACTIVE","ONESTOP_LINK":"http://www4.des.state.nh.us/DESOneStop/ASFDetail.aspx?ID=2635","LONGITUDE":"-71.00","LATITUDE":"43.34"},"id":110},{"type":"Feature","geometry":{"type":"Point","coordinates":[-71.87001320013037,43.81382769956888]},"properties":{"OBJECTID":"111","MASTERID":"5194","FACILITY_ID":"2639","SITE_NAME":"SHORTT'S GARAGE & BILL'S BODY SHOP","ADDRESS":"1107 OLD ROUTE 25","ADD2":"","TOWN":"RUMNEY","STATUS":"ACTIVE","ONESTOP_LINK":"http://www4.des.state.nh.us/DESOneStop/ASFDetail.aspx?ID=2639","LONGITUDE":"-71.87","LATITUDE":"43.81"},"id":111},{"type":"Feature","geometry":{"type":"Point","coordinates":[-71.8087499995496,43.79526070040497]},"properties":{"OBJECTID":"112","MASTERID":"55761","FACILITY_ID":"2642","SITE_NAME":"CENTRAL METAL RECYCLING","ADDRESS":"4 UTILITY DRIVE","ADD2":"230 SCHOOL STREET","TOWN":"RUMNEY","STATUS":"ACTIVE","ONESTOP_LINK":"http://www4.des.state.nh.us/DESOneStop/ASFDetail.aspx?ID=2642","LONGITUDE":"-71.81","LATITUDE":"43.80"},"id":112},{"type":"Feature","geometry":{"type":"Point","coordinates":[-71.24741350008436,42.76429719983151]},"properties":{"OBJECTID":"113","MASTERID":"13960","FACILITY_ID":"2644","SITE_NAME":"ADESA IMPACT","ADDRESS":"","ADD2":"75 LOWELL RD","TOWN":"SALEM","STATUS":"ACTIVE","ONESTOP_LINK":"http://www4.des.state.nh.us/DESOneStop/ASFDetail.aspx?ID=2644","LONGITUDE":"-71.25","LATITUDE":"42.76"},"id":113},{"type":"Feature","geometry":{"type":"Point","coordinates":[-71.19868849945695,42.75710830041905]},"properties":{"OBJECTID":"114","MASTERID":"51471","FACILITY_ID":"2645","SITE_NAME":"AUTO YARD","ADDRESS":"201 LAWRENCE ROAD","ADD2":"","TOWN":"SALEM","STATUS":"ACTIVE","ONESTOP_LINK":"http://www4.des.state.nh.us/DESOneStop/ASFDetail.aspx?ID=2645","LONGITUDE":"-71.20","LATITUDE":"42.76"},"id":114},{"type":"Feature","geometry":{"type":"Point","coordinates":[-71.1895662996131,42.77015480013777]},"properties":{"OBJECTID":"115","MASTERID":"46707","FACILITY_ID":"2646","SITE_NAME":"BRUCE'S GARAGE, INC.","ADDRESS":"74 WHEELER AVE","ADD2":"","TOWN":"SALEM","STATUS":"ACTIVE","ONESTOP_LINK":"http://www4.des.state.nh.us/DESOneStop/ASFDetail.aspx?ID=2646","LONGITUDE":"-71.19","LATITUDE":"42.77"},"id":115},{"type":"Feature","geometry":{"type":"Point","coordinates":[-71.25021109959573,42.763422200255846]},"properties":{"OBJECTID":"116","MASTERID":"13955","FACILITY_ID":"2647","SITE_NAME":"A J'S USED AUTO PARTS INC","ADDRESS":"89 LOWELL ROAD","ADD2":"","TOWN":"SALEM","STATUS":"ACTIVE","ONESTOP_LINK":"http://www4.des.state.nh.us/DESOneStop/ASFDetail.aspx?ID=2647","LONGITUDE":"-71.25","LATITUDE":"42.76"},"id":116},{"type":"Feature","geometry":{"type":"Point","coordinates":[-71.22008540028929,42.775663200226866]},"properties":{"OBJECTID":"117","MASTERID":"46601","FACILITY_ID":"2648","SITE_NAME":"PARK AVE USED AUTO PARTS","ADDRESS":"55 PARK AVE","ADD2":"","TOWN":"SALEM","STATUS":"ACTIVE","ONESTOP_LINK":"http://www4.des.state.nh.us/DESOneStop/ASFDetail.aspx?ID=2648","LONGITUDE":"-71.22","LATITUDE":"42.78"},"id":117},{"type":"Feature","geometry":{"type":"Point","coordinates":[-70.8852218000547,42.90003610035538]},"properties":{"OBJECTID":"118","MASTERID":"14079","FACILITY_ID":"2655","SITE_NAME":"FOGGS AUTO RECYCLING","ADDRESS":"45 STARD RD","ADD2":"","TOWN":"SEABROOK","STATUS":"ACTIVE","ONESTOP_LINK":"http://www4.des.state.nh.us/DESOneStop/ASFDetail.aspx?ID=2655","LONGITUDE":"-70.89","LATITUDE":"42.90"},"id":118},{"type":"Feature","geometry":{"type":"Point","coordinates":[-70.87263539945631,42.87630760031586]},"properties":{"OBJECTID":"119","MASTERID":"56031","FACILITY_ID":"2656","SITE_NAME":"CIRCLE MOTOR SALES","ADDRESS":"5 MAIN ST","ADD2":"","TOWN":"SEABROOK","STATUS":"ACTIVE","ONESTOP_LINK":"http://www4.des.state.nh.us/DESOneStop/ASFDetail.aspx?ID=2656","LONGITUDE":"-70.87","LATITUDE":"42.88"},"id":119},{"type":"Feature","geometry":{"type":"Point","coordinates":[-70.84887459986858,42.88860799957496]},"properties":{"OBJECTID":"120","MASTERID":"18486","FACILITY_ID":"2658","SITE_NAME":"WALTER E. KNOWLES AUTO SALVAGE","ADDRESS":"121 FARM LANE","ADD2":"","TOWN":"SEABROOK","STATUS":"ACTIVE","ONESTOP_LINK":"http://www4.des.state.nh.us/DESOneStop/ASFDetail.aspx?ID=2658","LONGITUDE":"-70.85","LATITUDE":"42.89"},"id":120},{"type":"Feature","geometry":{"type":"Point","coordinates":[-70.89711350037177,43.23643570043532]},"properties":{"OBJECTID":"121","MASTERID":"56032","FACILITY_ID":"2660","SITE_NAME":"MIDWAY AUTO SALVAGE","ADDRESS":"15 ROUTE 108","ADD2":"","TOWN":"SOMERSWORTH","STATUS":"INACTIVE","ONESTOP_LINK":"http://www4.des.state.nh.us/DESOneStop/ASFDetail.aspx?ID=2660","LONGITUDE":"-70.90","LATITUDE":"43.24"},"id":121},{"type":"Feature","geometry":{"type":"Point","coordinates":[-70.99481630053636,42.87697710040929]},"properties":{"OBJECTID":"122","MASTERID":"56033","FACILITY_ID":"2666","SITE_NAME":"ROY'S AUTO BODY & SALES","ADDRESS":"190 HILLDALE AVE","ADD2":"","TOWN":"SOUTH HAMPTON","STATUS":"ACTIVE","ONESTOP_LINK":"http://www4.des.state.nh.us/DESOneStop/ASFDetail.aspx?ID=2666","LONGITUDE":"-70.99","LATITUDE":"42.88"},"id":122},{"type":"Feature","geometry":{"type":"Point","coordinates":[-72.19557459994206,43.02537980024552]},"properties":{"OBJECTID":"123","MASTERID":"57131","FACILITY_ID":"2670","SITE_NAME":"OUELLETTE & SONS AUTO SALVAGE","ADDRESS":"128 BOWLDER RD","ADD2":"","TOWN":"SULLIVAN","STATUS":"ACTIVE","ONESTOP_LINK":"http://www4.des.state.nh.us/DESOneStop/ASFDetail.aspx?ID=2670","LONGITUDE":"-72.20","LATITUDE":"43.03"},"id":123},{"type":"Feature","geometry":{"type":"Point","coordinates":[-72.19354680057774,43.01875480035457]},"properties":{"OBJECTID":"124","MASTERID":"57335","FACILITY_ID":"2671","SITE_NAME":"ALAN CURTIS JONES, SR. REPAIR SERVICE","ADDRESS":"62 ELLIS RD","ADD2":"","TOWN":"SULLIVAN","STATUS":"ACTIVE","ONESTOP_LINK":"http://www4.des.state.nh.us/DESOneStop/ASFDetail.aspx?ID=2671","LONGITUDE":"-72.19","LATITUDE":"43.02"},"id":124},{"type":"Feature","geometry":{"type":"Point","coordinates":[-72.18285210031783,42.99957459982412]},"properties":{"OBJECTID":"125","MASTERID":"43256","FACILITY_ID":"2672","SITE_NAME":"RON'S AUTO BODY","ADDRESS":"RTE 9","ADD2":"","TOWN":"SULLIVAN","STATUS":"ACTIVE","ONESTOP_LINK":"http://www4.des.state.nh.us/DESOneStop/ASFDetail.aspx?ID=2672","LONGITUDE":"-72.18","LATITUDE":"43.00"},"id":125},{"type":"Feature","geometry":{"type":"Point","coordinates":[-72.29779410052633,42.91081939991695]},"properties":{"OBJECTID":"126","MASTERID":"55753","FACILITY_ID":"2678","SITE_NAME":"BUFFUM AUTO PARTS","ADDRESS":"1A WEST SWANZEY RD","ADD2":"","TOWN":"SWANZEY","STATUS":"ACTIVE","ONESTOP_LINK":"http://www4.des.state.nh.us/DESOneStop/ASFDetail.aspx?ID=2678","LONGITUDE":"-72.30","LATITUDE":"42.91"},"id":126},{"type":"Feature","geometry":{"type":"Point","coordinates":[-72.33753300057232,42.85430549972759]},"properties":{"OBJECTID":"127","MASTERID":"55743","FACILITY_ID":"2679","SITE_NAME":"BEDARD AUTO","ADDRESS":"RTE 10","ADD2":"956 WEST SWANZEY ROAD","TOWN":"SWANZEY","STATUS":"ACTIVE","ONESTOP_LINK":"http://www4.des.state.nh.us/DESOneStop/ASFDetail.aspx?ID=2679","LONGITUDE":"-72.34","LATITUDE":"42.85"},"id":127},{"type":"Feature","geometry":{"type":"Point","coordinates":[-72.32991600007884,42.87866869975482]},"properties":{"OBJECTID":"128","MASTERID":"43191","FACILITY_ID":"2680","SITE_NAME":"BOB'S WEST SWANZEY GARAGE","ADDRESS":"90 N WINCHESTER ST","ADD2":"","TOWN":"SWANZEY","STATUS":"ACTIVE","ONESTOP_LINK":"http://www4.des.state.nh.us/DESOneStop/ASFDetail.aspx?ID=2680","LONGITUDE":"-72.33","LATITUDE":"42.88"},"id":128},{"type":"Feature","geometry":{"type":"Point","coordinates":[-72.24319410057619,42.89061069995981]},"properties":{"OBJECTID":"129","MASTERID":"58547","FACILITY_ID":"2681","SITE_NAME":"BRNGER INC","ADDRESS":"304 MONADNOCK HIGHWAY","ADD2":"","TOWN":"SWANZEY","STATUS":"INACTIVE","ONESTOP_LINK":"http://www4.des.state.nh.us/DESOneStop/ASFDetail.aspx?ID=2681","LONGITUDE":"-72.24","LATITUDE":"42.89"},"id":129},{"type":"Feature","geometry":{"type":"Point","coordinates":[-72.33319650054925,42.87337710021157]},"properties":{"OBJECTID":"130","MASTERID":"43202","FACILITY_ID":"2682","SITE_NAME":"ROUTE 10 AUTO INC","ADDRESS":"ROUTE 10","ADD2":"","TOWN":"SWANZEY","STATUS":"ACTIVE","ONESTOP_LINK":"http://www4.des.state.nh.us/DESOneStop/ASFDetail.aspx?ID=2682","LONGITUDE":"-72.33","LATITUDE":"42.87"},"id":130},{"type":"Feature","geometry":{"type":"Point","coordinates":[-72.28920800008787,42.888099600078135]},"properties":{"OBJECTID":"131","MASTERID":"43212","FACILITY_ID":"2683","SITE_NAME":"WOODY'S AUTO SALES","ADDRESS":"231 SAWYERS CROSSING RD","ADD2":"","TOWN":"SWANZEY","STATUS":"ACTIVE","ONESTOP_LINK":"http://www4.des.state.nh.us/DESOneStop/ASFDetail.aspx?ID=2683","LONGITUDE":"-72.29","LATITUDE":"42.89"},"id":131},{"type":"Feature","geometry":{"type":"Point","coordinates":[-71.20952499960656,43.85250549996491]},"properties":{"OBJECTID":"132","MASTERID":"14260","FACILITY_ID":"2686","SITE_NAME":"RICKER AUTO SALVAGE","ADDRESS":"112 MAPLE RD","ADD2":"","TOWN":"TAMWORTH","STATUS":"ACTIVE","ONESTOP_LINK":"http://www4.des.state.nh.us/DESOneStop/ASFDetail.aspx?ID=2686","LONGITUDE":"-71.21","LATITUDE":"43.85"},"id":132},{"type":"Feature","geometry":{"type":"Point","coordinates":[-71.61680479939693,43.447866299673784]},"properties":{"OBJECTID":"133","MASTERID":"14289","FACILITY_ID":"2689","SITE_NAME":"CAMARO HEAVEN","ADDRESS":"112 CLARK RD","ADD2":"","TOWN":"TILTON","STATUS":"ACTIVE","ONESTOP_LINK":"http://www4.des.state.nh.us/DESOneStop/ASFDetail.aspx?ID=2689","LONGITUDE":"-71.62","LATITUDE":"43.45"},"id":133},{"type":"Feature","geometry":{"type":"Point","coordinates":[-72.24886069945077,43.28873300011472]},"properties":{"OBJECTID":"134","MASTERID":"57135","FACILITY_ID":"2692","SITE_NAME":"DOUG'S AUTO","ADDRESS":"1047 2ND NH TURNPIKE","ADD2":"","TOWN":"UNITY","STATUS":"ACTIVE","ONESTOP_LINK":"http://www4.des.state.nh.us/DESOneStop/ASFDetail.aspx?ID=2692","LONGITUDE":"-72.25","LATITUDE":"43.29"},"id":134},{"type":"Feature","geometry":{"type":"Point","coordinates":[-71.0150361001015,43.53115480019772]},"properties":{"OBJECTID":"135","MASTERID":"56045","FACILITY_ID":"2696","SITE_NAME":"ELDRIDGE PROPERTY","ADDRESS":"599 OLD STAGE RD","ADD2":"","TOWN":"WAKEFIELD","STATUS":"ACTIVE","ONESTOP_LINK":"http://www4.des.state.nh.us/DESOneStop/ASFDetail.aspx?ID=2696","LONGITUDE":"-71.02","LATITUDE":"43.53"},"id":135},{"type":"Feature","geometry":{"type":"Point","coordinates":[-71.02539099959742,43.492938499932144]},"properties":{"OBJECTID":"136","MASTERID":"5649","FACILITY_ID":"2698","SITE_NAME":"KINVILLE CORPORATION","ADDRESS":"220 MAIN STREET","ADD2":"","TOWN":"WAKEFIELD","STATUS":"ACTIVE","ONESTOP_LINK":"http://www4.des.state.nh.us/DESOneStop/ASFDetail.aspx?ID=2698","LONGITUDE":"-71.03","LATITUDE":"43.49"},"id":136},{"type":"Feature","geometry":{"type":"Point","coordinates":[-71.01471659945055,43.53114100036002]},"properties":{"OBJECTID":"137","MASTERID":"56041","FACILITY_ID":"2699","SITE_NAME":"GOODWIN PROPERTY","ADDRESS":"396 OLD STAGE RD","ADD2":"","TOWN":"WAKEFIELD","STATUS":"ACTIVE","ONESTOP_LINK":"http://www4.des.state.nh.us/DESOneStop/ASFDetail.aspx?ID=2699","LONGITUDE":"-71.01","LATITUDE":"43.53"},"id":137},{"type":"Feature","geometry":{"type":"Point","coordinates":[-71.01077500038222,43.521216000371545]},"properties":{"OBJECTID":"138","MASTERID":"56043","FACILITY_ID":"2700","SITE_NAME":"LIBBYS AUTO SALVAGE & REPAIR","ADDRESS":"775 OLD STAGE RD","ADD2":"","TOWN":"WAKEFIELD","STATUS":"ACTIVE","ONESTOP_LINK":"http://www4.des.state.nh.us/DESOneStop/ASFDetail.aspx?ID=2700","LONGITUDE":"-71.01","LATITUDE":"43.52"},"id":138},{"type":"Feature","geometry":{"type":"Point","coordinates":[-72.39539410050187,43.10638610009401]},"properties":{"OBJECTID":"139","MASTERID":"57138","FACILITY_ID":"2704","SITE_NAME":"E & W SALVAGE","ADDRESS":"402 VALLEY RD","ADD2":"","TOWN":"WALPOLE","STATUS":"ACTIVE","ONESTOP_LINK":"http://www4.des.state.nh.us/DESOneStop/ASFDetail.aspx?ID=2704","LONGITUDE":"-72.40","LATITUDE":"43.11"},"id":139},{"type":"Feature","geometry":{"type":"Point","coordinates":[-71.78091319986947,43.317010400355535]},"properties":{"OBJECTID":"140","MASTERID":"56048","FACILITY_ID":"2706","SITE_NAME":"HARRY'S GARAGE","ADDRESS":"454 COUCHTOWN RD","ADD2":"","TOWN":"WARNER","STATUS":"ACTIVE","ONESTOP_LINK":"http://www4.des.state.nh.us/DESOneStop/ASFDetail.aspx?ID=2706","LONGITUDE":"-71.78","LATITUDE":"43.32"},"id":140},{"type":"Feature","geometry":{"type":"Point","coordinates":[-72.07482430024483,43.168121500036584]},"properties":{"OBJECTID":"141","MASTERID":"57773","FACILITY_ID":"2709","SITE_NAME":"LOU'S REPAIR","ADDRESS":"4550 EAST WASHINGTON RD","ADD2":"","TOWN":"WASHINGTON","STATUS":"ACTIVE","ONESTOP_LINK":"http://www4.des.state.nh.us/DESOneStop/ASFDetail.aspx?ID=2709","LONGITUDE":"-72.07","LATITUDE":"43.17"},"id":141},{"type":"Feature","geometry":{"type":"Point","coordinates":[-71.72184100010126,43.12316599995565]},"properties":{"OBJECTID":"142","MASTERID":"56052","FACILITY_ID":"2710","SITE_NAME":"WEARE BODY & FRAME","ADDRESS":"406 CONCORD STAGE RD","ADD2":"","TOWN":"WEARE","STATUS":"ACTIVE","ONESTOP_LINK":"http://www4.des.state.nh.us/DESOneStop/ASFDetail.aspx?ID=2710","LONGITUDE":"-71.72","LATITUDE":"43.12"},"id":142},{"type":"Feature","geometry":{"type":"Point","coordinates":[-71.69278570053564,43.02721040029741]},"properties":{"OBJECTID":"143","MASTERID":"55721","FACILITY_ID":"2712","SITE_NAME":"ALLIED AUTO WRECKING","ADDRESS":"32 DUSTIN TAVERN RD","ADD2":"RTE 77","TOWN":"WEARE","STATUS":"ACTIVE","ONESTOP_LINK":"http://www4.des.state.nh.us/DESOneStop/ASFDetail.aspx?ID=2712","LONGITUDE":"-71.69","LATITUDE":"43.03"},"id":143},{"type":"Feature","geometry":{"type":"Point","coordinates":[-71.66907150002193,43.14552739994298]},"properties":{"OBJECTID":"144","MASTERID":"57143","FACILITY_ID":"2716","SITE_NAME":"K & W LIBBY","ADDRESS":"34 BOYCE ROAD","ADD2":"","TOWN":"WEARE","STATUS":"ACTIVE","ONESTOP_LINK":"http://www4.des.state.nh.us/DESOneStop/ASFDetail.aspx?ID=2716","LONGITUDE":"-71.67","LATITUDE":"43.15"},"id":144},{"type":"Feature","geometry":{"type":"Point","coordinates":[-71.66519439951443,43.26469999968485]},"properties":{"OBJECTID":"145","MASTERID":"55498","FACILITY_ID":"2719","SITE_NAME":"WEBSTER TOWN AUTO RECYCLING","ADDRESS":"111 DEER MEADOW RD","ADD2":"","TOWN":"WEBSTER","STATUS":"ACTIVE","ONESTOP_LINK":"http://www4.des.state.nh.us/DESOneStop/ASFDetail.aspx?ID=2719","LONGITUDE":"-71.67","LATITUDE":"43.26"},"id":145},{"type":"Feature","geometry":{"type":"Point","coordinates":[-71.71677709955732,43.34644679997728]},"properties":{"OBJECTID":"146","MASTERID":"57144","FACILITY_ID":"2720","SITE_NAME":"J H ROBERTS TRUCKING","ADDRESS":"HEMLOCK HOLLOW LANE","ADD2":"OFF OF MUTTON ROAD","TOWN":"WEBSTER","STATUS":"ACTIVE","ONESTOP_LINK":"http://www4.des.state.nh.us/DESOneStop/ASFDetail.aspx?ID=2720","LONGITUDE":"-71.72","LATITUDE":"43.35"},"id":146},{"type":"Feature","geometry":{"type":"Point","coordinates":[-71.56266380008566,44.4050582999051]},"properties":{"OBJECTID":"147","MASTERID":"14428","FACILITY_ID":"2726","SITE_NAME":"DICK'S TRUCK SALES","ADDRESS":"123 OLD EAST RD","ADD2":"","TOWN":"WHITEFIELD","STATUS":"ACTIVE","ONESTOP_LINK":"http://www4.des.state.nh.us/DESOneStop/ASFDetail.aspx?ID=2726","LONGITUDE":"-71.56","LATITUDE":"44.41"},"id":147},{"type":"Feature","geometry":{"type":"Point","coordinates":[-71.76795759965397,42.821824299914425]},"properties":{"OBJECTID":"148","MASTERID":"55747","FACILITY_ID":"2730","SITE_NAME":"BLANCHARD AUTO SALVAGE, LLC.","ADDRESS":"47 GREENVILLE ROAD","ADD2":"","TOWN":"WILTON","STATUS":"ACTIVE","ONESTOP_LINK":"http://www4.des.state.nh.us/DESOneStop/ASFDetail.aspx?ID=2730","LONGITUDE":"-71.77","LATITUDE":"42.82"},"id":148},{"type":"Feature","geometry":{"type":"Point","coordinates":[-72.45134720051519,42.790849599828256]},"properties":{"OBJECTID":"149","MASTERID":"55742","FACILITY_ID":"2732","SITE_NAME":"BECHARD & SON SALVAGE","ADDRESS":"360 MAIN ST","ADD2":"RTE 119 WEST SOUTH SIDE","TOWN":"ASHUELOT","STATUS":"ACTIVE","ONESTOP_LINK":"http://www4.des.state.nh.us/DESOneStop/ASFDetail.aspx?ID=2732","LONGITUDE":"-72.45","LATITUDE":"42.79"},"id":149},{"type":"Feature","geometry":{"type":"Point","coordinates":[-72.38150479970687,42.772210400129715]},"properties":{"OBJECTID":"150","MASTERID":"56063","FACILITY_ID":"2734","SITE_NAME":"RONNIE'S TRUCK SERVICE","ADDRESS":"23 RICHMOND RD","ADD2":"","TOWN":"WINCHESTER","STATUS":"ACTIVE","ONESTOP_LINK":"http://www4.des.state.nh.us/DESOneStop/ASFDetail.aspx?ID=2734","LONGITUDE":"-72.38","LATITUDE":"42.77"},"id":150},{"type":"Feature","geometry":{"type":"Point","coordinates":[-72.39065520053292,42.76687149977464]},"properties":{"OBJECTID":"151","MASTERID":"5821","FACILITY_ID":"2735","SITE_NAME":"J & G'S SERVICE","ADDRESS":"7 BACK ASHUELOT ST","ADD2":"","TOWN":"WINCHESTER","STATUS":"ACTIVE","ONESTOP_LINK":"http://www4.des.state.nh.us/DESOneStop/ASFDetail.aspx?ID=2735","LONGITUDE":"-72.39","LATITUDE":"42.77"},"id":151},{"type":"Feature","geometry":{"type":"Point","coordinates":[-72.36433609995136,42.72959649956824]},"properties":{"OBJECTID":"152","MASTERID":"5822","FACILITY_ID":"2738","SITE_NAME":"JOHNNIE'S SALES & SERVICE","ADDRESS":"616 WARWICK RD","ADD2":"","TOWN":"WINCHESTER","STATUS":"ACTIVE","ONESTOP_LINK":"http://www4.des.state.nh.us/DESOneStop/ASFDetail.aspx?ID=2738","LONGITUDE":"-72.36","LATITUDE":"42.73"},"id":152},{"type":"Feature","geometry":{"type":"Point","coordinates":[-71.51326109960922,43.164366600179505]},"properties":{"OBJECTID":"153","MASTERID":"40252","FACILITY_ID":"2743","SITE_NAME":"AUTOBAHN OF NH","ADDRESS":"3 GARVINS FALLS RD","ADD2":"","TOWN":"BOW","STATUS":"ACTIVE","ONESTOP_LINK":"http://www4.des.state.nh.us/DESOneStop/ASFDetail.aspx?ID=2743","LONGITUDE":"-71.51","LATITUDE":"43.16"},"id":153},{"type":"Feature","geometry":{"type":"Point","coordinates":[-72.285155199493,43.363697199643546]},"properties":{"OBJECTID":"154","MASTERID":"672","FACILITY_ID":"2761","SITE_NAME":"GENERAL AUTO SALES, INC.","ADDRESS":"NEWPORT ROAD","ADD2":"ROUTES 11 & 103","TOWN":"CLAREMONT","STATUS":"ACTIVE","ONESTOP_LINK":"http://www4.des.state.nh.us/DESOneStop/ASFDetail.aspx?ID=2761","LONGITUDE":"-72.29","LATITUDE":"43.36"},"id":154},{"type":"Feature","geometry":{"type":"Point","coordinates":[-71.07213539966278,43.047646800389586]},"properties":{"OBJECTID":"155","MASTERID":"55925","FACILITY_ID":"2766","SITE_NAME":"EUROPEAN CONNECTION","ADDRESS":"6 PLUMER ROAD","ADD2":"","TOWN":"EPPING","STATUS":"ACTIVE","ONESTOP_LINK":"http://www4.des.state.nh.us/DESOneStop/ASFDetail.aspx?ID=2766","LONGITUDE":"-71.07","LATITUDE":"43.05"},"id":155},{"type":"Feature","geometry":{"type":"Point","coordinates":[-71.63204369953526,43.062275000236156]},"properties":{"OBJECTID":"156","MASTERID":"55722","FACILITY_ID":"2767","SITE_NAME":"AMERICAN AUTO ACS","ADDRESS":"1171 GORHAM POND RD","ADD2":"","TOWN":"DUNBARTON","STATUS":"ACTIVE","ONESTOP_LINK":"http://www4.des.state.nh.us/DESOneStop/ASFDetail.aspx?ID=2767","LONGITUDE":"-71.63","LATITUDE":"43.06"},"id":156},{"type":"Feature","geometry":{"type":"Point","coordinates":[-71.62427979983691,43.16934650029966]},"properties":{"OBJECTID":"157","MASTERID":"44365","FACILITY_ID":"2769","SITE_NAME":"TUT'S AUTO BODY & SALES","ADDRESS":"697 BROCKWAY ROAD","ADD2":"","TOWN":"HOPKINTON","STATUS":"ACTIVE","ONESTOP_LINK":"http://www4.des.state.nh.us/DESOneStop/ASFDetail.aspx?ID=2769","LONGITUDE":"-71.62","LATITUDE":"43.17"},"id":157},{"type":"Feature","geometry":{"type":"Point","coordinates":[-71.09103569945661,42.8614332995658]},"properties":{"OBJECTID":"158","MASTERID":"44303","FACILITY_ID":"2770","SITE_NAME":"ASAP PARTS LOCATOR","ADDRESS":"3 GRANITE RD","ADD2":"","TOWN":"KINGSTON","STATUS":"ACTIVE","ONESTOP_LINK":"http://www4.des.state.nh.us/DESOneStop/ASFDetail.aspx?ID=2770","LONGITUDE":"-71.09","LATITUDE":"42.86"},"id":158},{"type":"Feature","geometry":{"type":"Point","coordinates":[-71.12716319939271,43.18305759961521]},"properties":{"OBJECTID":"159","MASTERID":"14771","FACILITY_ID":"2777","SITE_NAME":"ENVIRONMENTAL CLEAN-UP","ADDRESS":"226 OLD TURNPIKE ROAD","ADD2":"","TOWN":"NOTTINGHAM","STATUS":"ACTIVE","ONESTOP_LINK":"http://www4.des.state.nh.us/DESOneStop/ASFDetail.aspx?ID=2777","LONGITUDE":"-71.13","LATITUDE":"43.18"},"id":159},{"type":"Feature","geometry":{"type":"Point","coordinates":[-71.29414959994463,42.719357600083896]},"properties":{"OBJECTID":"160","MASTERID":"41854","FACILITY_ID":"2779","SITE_NAME":"JACK MANSUR'S AUTO","ADDRESS":"76 DUTTON ROAD","ADD2":"","TOWN":"PELHAM","STATUS":"ACTIVE","ONESTOP_LINK":"http://www4.des.state.nh.us/DESOneStop/ASFDetail.aspx?ID=2779","LONGITUDE":"-71.29","LATITUDE":"42.72"},"id":160},{"type":"Feature","geometry":{"type":"Point","coordinates":[-71.21491940042004,42.937460700175]},"properties":{"OBJECTID":"161","MASTERID":"51499","FACILITY_ID":"2784","SITE_NAME":"HERK ENTERPRISES INC","ADDRESS":"132 WELLS VILLAGE ROAD","ADD2":"","TOWN":"SANDOWN","STATUS":"ACTIVE","ONESTOP_LINK":"http://www4.des.state.nh.us/DESOneStop/ASFDetail.aspx?ID=2784","LONGITUDE":"-71.21","LATITUDE":"42.94"},"id":161},{"type":"Feature","geometry":{"type":"Point","coordinates":[-72.02864100028435,44.0776159997133]},"properties":{"OBJECTID":"162","MASTERID":"56810","FACILITY_ID":"2813","SITE_NAME":"JET STAR ENTERPRISES","ADDRESS":"2280 DARTMOUTH COLLEGE HWY","ADD2":"ROUTE 10","TOWN":"HAVERHILL","STATUS":"ACTIVE","ONESTOP_LINK":"http://www4.des.state.nh.us/DESOneStop/ASFDetail.aspx?ID=2813","LONGITUDE":"-72.03","LATITUDE":"44.08"},"id":162}]}